     3.03           OBSERVATION DATA    M: Mixed            RINEX VERSION / TYPE
CONVBIN 1.0.1 Emlid                     20240110 160417 UTC PGM / RUN BY / DATE 
log: MACROCOSM-2_raw_202401101542.24                        COMMENT             
format: u-blox                                              COMMENT             
                                                            MARKER NAME         
                                                            MARKER NUMBER       
                                                            MARKER TYPE         
                                                            OBSERVER / AGENCY   
                    EMLID REACH M2                          REC # / TYPE / VERS 
                                                            ANT # / TYPE        
  2481178.0508 -5525675.3309  1992285.0862                  APPROX POSITION XYZ 
        0.0000        0.0000        0.0000                  ANTENNA: DELTA H/E/N
G    8 C1C L1C D1C S1C C2X L2X D2X S2X                      SYS / # / OBS TYPES 
R    8 C1C L1C D1C S1C C2C L2C D2C S2C                      SYS / # / OBS TYPES 
E    8 C1X L1X D1X S1X C7X L7X D7X S7X                      SYS / # / OBS TYPES 
J    8 C1C L1C D1C S1C C2X L2X D2X S2X                      SYS / # / OBS TYPES 
C    8 C2I L2I D2I S2I C7I L7I D7I S7I                      SYS / # / OBS TYPES 
     1.000                                                  INTERVAL            
  2024     1    10    15    43   51.0030000     GPS         TIME OF FIRST OBS   
  2024     1    10    16     4   36.0040000     GPS         TIME OF LAST OBS    
G                                                           SYS / PHASE SHIFT   
R                                                           SYS / PHASE SHIFT   
E                                                           SYS / PHASE SHIFT   
J                                                           SYS / PHASE SHIFT   
C                                                           SYS / PHASE SHIFT   
  0                                                         GLONASS SLOT / FRQ #
 C1C    0.000 C1P    0.000 C2C    0.000 C2P    0.000        GLONASS COD/PHS/BIS 
                                                            END OF HEADER       
> 2024  1 10 15 43 51.0030000  0 11                     
G 4  25739777.775 8               7      1955.542          27.000                                                                  
G16  21640845.427 1 113723409.53512      -280.725          38.000                                                                  
G26  21292471.019 1 111892688.824 1     -2288.547          44.000    21292477.223 9                     -1795.133          21.000  
G28  23270631.122 1 122287991.839 2     -2000.350          40.000    23270638.660 1  95289373.80812     -1558.704          38.000  
G31  22707806.173 2 119330327.05815     -1617.652          32.000    22707813.832 2               7     -1260.128          29.000  
G32  22891161.780 1 120293867.901 3     -3470.798          36.000    22891178.700 8                     -2706.120          26.000  
R 7  20260541.592 1 108456264.80312     -2625.742          41.000    20260547.279 2  84354896.03413     -2042.208          36.000  
R 8  21434892.257 2 114782874.79912      1193.208          40.000    21434893.598 2  89275573.892 4       927.799          32.000  
R 9  23700500.167 9                     -3971.492          26.000    23700491.039 4                     -3088.940          24.000  
R10  21831265.775 2 116372929.73614     -3018.438          35.000    21320374.107 4  88394125.82525       766.289          32.000  
R11  22911679.396 2 122433067.341 3      -656.403          35.000                                                                  
> 2024  1 10 15 43 52.0030000  0 11                     
G 4  25739407.577 4                      1955.306          28.000                                                                  
G16  21640898.970 1 113723690.567 3      -281.329          38.000                                                                  
G26  21292906.648 1 111894977.673 1     -2289.369          44.000    21292912.835 9                     -1784.713          19.000  
G28  23271011.876 1 122289992.488 2     -2001.092          39.000    23271019.354 1  95290932.760 3     -1559.542          38.000  
G31  22708113.701 2 119331944.459 5     -1617.671          32.000    22708121.426 2               7     -1260.637          29.000  
G32  22891822.141 1 120297339.131 4     -3471.886          35.000    22891838.540 8                     -2704.742          26.000  
R 7  20261032.146 1 108458891.185 2     -2627.245          41.000    20261037.838 2  84356938.765 3     -2043.111          36.000  
R 8  21434669.125 1 114781681.881 2      1192.111          40.000    21434670.753 4  89274646.034 5       927.661          32.000  
R 9  23701239.042 9                     -3972.459          26.000    23701234.850 4                     -3089.227          24.000  
R10  21831832.049 2 116375948.560 4     -3018.335          35.000    21320189.563 4               7       764.677          32.000  
R11  22911802.322 2 122433723.659 3      -656.535          35.000                                                                  
> 2024  1 10 15 43 53.0030000  0 11                     
G 4  25739034.299 8               7      1954.630          28.000                                                                  
G16  21640952.662 1 113723972.760 2      -282.843          38.000                                                                  
G26  21293342.592 1 111897267.521 1     -2290.506          45.000    21293350.182 9                     -1785.635          19.000  
G28  23271392.620 1 122291993.672 2     -2001.663          40.000    23271400.122 1  95292492.116 3     -1559.774          38.000  
G31  22708421.361 2 119333562.435 5     -1617.749          32.000    22708429.169 2               6     -1261.299          29.000  
G32  22892482.674 1 120300811.342 3     -3472.641          35.000    22892498.683 8                     -2707.473          26.000  
R 7  20261522.986 1 108461518.978 2     -2628.501          42.000    20261528.559 2  84358982.643 3     -2044.901          36.000  
R 8  21434446.137 1 114780490.174 2      1191.045          40.000    21434448.080 4  89273719.176 5       926.310          32.000  
R 9  23701986.025 9                     -3972.710          26.000    23701978.727 4                     -3089.781          24.000  
R10  21832398.527 2 116378968.112 3     -3019.653          35.000    21320005.086 4               6       762.973          32.000  
R11  22911925.424 2 122434380.944 4      -658.011          34.000                                                                  
> 2024  1 10 15 43 54.0030000  0 11                     
G 4  25738664.290 8                      1954.294          27.000                                                                  
G16  21641006.653 1 113724256.042 3      -284.064          38.000                                                                  
G26  21293778.804 1 111899558.329 1     -2291.464          45.000    21293786.320 9                     -1782.950          19.000  
G28  23271773.615 1 122293995.410 2     -2001.747          39.000    23271781.035 1  95294051.905 3     -1559.831          38.000  
G31  22708729.103 2               6     -1619.429          31.000    22708737.084 2               6     -1260.769          29.000  
G32  22893143.409 1 120304284.625 3     -3473.886          36.000    22893158.693 8                     -2706.428          26.000  
R 7  20262014.105 1 108464148.189 2     -2630.007          42.000    20262019.482 2  84361027.547 3     -2045.617          36.000  
R 8  21434223.604 1 114779299.650 2      1189.909          40.000    21434225.565 4  89272793.244 5       924.919          32.000  
R 9  23702728.411 9                     -3973.734          26.000    23702721.054 9                     -3087.766          24.000  
R10  21832965.130 2 116381988.356 3     -3020.459          35.000    21319820.659 4               6       764.330          32.000  
R11  22912048.758 2 122435039.096 4      -658.791          34.000                                                                  
> 2024  1 10 15 43 55.0030000  0 11                     
G 4  25738293.923 8                      1953.388          27.000                                                                  
G16  21641060.747 1 113724540.411 3      -285.529          38.000                                                                  
G26  21294214.872 1 111901850.076 1     -2292.157          45.000    21294222.595 9                     -1787.416          19.000  
G28  23272154.652 1 122295997.713 2     -2002.516          39.000    23272162.133 1  95295612.133 2     -1560.413          38.000  
G31  22709036.843 2               7     -1619.570          31.000    22709045.143 2                     -1261.685          29.000  
G32  22893804.439 1 120307758.855 3     -3474.553          36.000    22893820.013 9                     -2708.541          26.000  
R 7  20262505.552 1 108466778.793 2     -2631.437          42.000    20262510.883 2  84363073.582 3     -2046.686          36.000  
R 8  21434001.321 2 114778110.322 2      1188.825          40.000    21434003.389 4               6       924.560          32.000  
R 9  23703474.876 9                     -3973.188          27.000                                                                  
R10  21833531.729 2 116385009.225 4     -3021.081          35.000    21319636.614 4               6       762.682          32.000  
R11  22912172.085 2 122435698.178 4      -659.523          33.000                                                                  
> 2024  1 10 15 43 56.0030000  0 11                     
G 4  25737921.604 8               7      1952.988          27.000                                                                  
G16  21641115.141 1 113724825.944 3      -286.609          38.000                                                                  
G26  21294651.365 1 111904142.833 1     -2293.614          45.000    21294658.073 9                     -1789.240          20.000  
G28  23272535.749 1 122298000.625 2     -2003.758          39.000    23272543.265 1  95297172.816 3     -1560.882          38.000  
G31  22709344.765 4               7     -1621.062          30.000    22709353.246 2               7     -1262.327          28.000  
G32  22894465.908 1 120311234.166 3     -3475.795          36.000    22894481.604 8                     -2708.281          26.000  
R 7  20262997.284 1 108469410.814 2     -2633.089          42.000    20263002.430 2  84365120.724 3     -2047.737          36.000  
R 8  21433779.247 1 114776922.228 2      1187.104          39.000    21433781.386 4               6       923.299          32.000  
R 9  23704217.988 9                     -3973.925          27.000                                                                  
R10  21834098.455 2 116388030.847 5     -3022.046          35.000    21319452.483 4               6       761.148          32.000  
R11  22912295.561 2 122436358.187 5      -660.880          33.000                                                                  
> 2024  1 10 15 43 57.0030000  0 11                     
G 4  25737548.521 8                      1952.560          27.000                                                                  
G16  21641169.704 1 113725112.599 3      -287.311          38.000                                                                  
G26  21295088.062 1 111906436.586 1     -2294.110          45.000    21295094.943 9                     -1783.692          20.000  
G28  23272916.984 1 122300004.093 2     -2003.356          39.000    23272924.461 1  95298733.978 2     -1561.339          38.000  
G31  22709652.705 4               7     -1619.969          31.000    22709661.528 2               7     -1263.019          29.000  
G32  22895127.446 1 120314710.539 3     -3476.819          36.000    22895142.686 8                     -2709.467          27.000  
R 7  20263489.285 1 108472044.292 2     -2633.998          42.000    20263494.223 2  84367168.976 3     -2048.747          36.000  
R 8  21433557.231 1 114775735.363 2      1186.475          40.000    21433559.805 4               6       922.625          32.000  
R 9  23704962.257 9                     -3973.851          28.000                                                                  
R10  21834665.450 2 116391053.137 5     -3021.997          34.000    21319268.751 4  88389545.89225       760.299          32.000  
R11  22912419.224 4 122437019.176 5      -662.186          33.000    22912425.685 4               7      -514.293          29.000  
> 2024  1 10 15 43 58.0030000  0 12                     
G 4  25737181.150 8               7      1952.365          28.000                                                                  
G16  21641224.526 1 113725400.282 3      -288.348          38.000                                                                  
G26  21295524.815 1 111908731.212 1     -2295.003          45.000    21295532.161 9                     -1786.423          21.000  
G28  23273298.346 1 122302008.071 2     -2004.183          39.000    23273305.799 1  95300295.518 3     -1561.897          38.000  
G31  22709960.641 4               7     -1621.634          30.000    22709969.669 2               6     -1263.200          29.000  
G32  22895789.093 1 120318187.805 3     -3477.407          36.000    22895804.124 8                     -2709.498          27.000  
R 7  20263981.549 1 108474679.109 1     -2635.397          42.000    20263986.376 2  84369218.291 3     -2049.663          36.000  
R 8  21433335.631 1 114774549.578 2      1185.324          40.000    21433338.176 4               7       922.439          31.000  
R 9  23705707.991 9               7     -3974.421          28.000                                                                  
R10  21835232.451 2 116394076.069 5     -3023.511          34.000    21319085.340 4  88388785.89525       759.526          33.000  
R11  22912543.232 2 122437680.902 5      -661.775          33.000    22912549.571 4               7      -514.947          28.000  
C19  25561809.715 1 133107049.78912       817.221          38.000                                                                  
> 2024  1 10 15 43 59.0030000  0 12                     
G 4  25736812.145 8               7      1951.167          30.000                                                                  
G16  21641279.698 1 113725688.981 3      -289.221          38.000                                                                  
G26  21295961.744 1 111911026.702 1     -2296.036          45.000    21295967.989 9                     -1794.436          22.000  
G28  23273679.765 1 122304012.495 2     -2005.015          39.000    23273687.164 1  95301857.378 2     -1562.078          38.000  
G31  22710268.521 4               6     -1621.172          31.000    22710278.050 2               7     -1263.238          29.000  
G32  22896450.877 1 120321666.029 3     -3479.028          36.000    22896466.177 8               7     -2710.711          27.000  
R 7  20264474.155 1 108477315.247 1     -2636.818          42.000    20264478.757 2  84371268.625 3     -2051.141          36.000  
R 8  21433114.126 1 114773364.880 2      1184.276          40.000    21433116.749 4               7       921.368          31.000  
R 9  23706453.058 9               7     -3974.358          28.000                                                                  
R10  21835799.710 2 116397099.510 4     -3023.486          34.000    21318902.134 4  88388026.72425       758.917          33.000  
R11  22912667.356 2 122438343.521 4      -663.271          33.000    22912673.539 4               7      -515.673          28.000  
C19  25561652.819 1 133106232.896 3       816.448          38.000                                                                  
> 2024  1 10 15 44  0.0030000  0 12                     
G 4  25736440.292 8                      1952.466          30.000                                                                  
G16  21641334.733 1 113725978.792 3      -290.460          38.000                                                                  
G26  21296398.912 1 111913323.137 2     -2296.771          44.000    21296408.189 9                     -1784.687          22.000  
G28  23274061.278 1 122306017.457 3     -2005.300          39.000    23274068.630 1  95303419.687 3     -1562.621          38.000  
G31  22710576.816 4               7     -1621.010          31.000    22710586.412 2               6     -1263.602          29.000  
G32  22897112.913 1 120325145.238 3     -3479.760          36.000    22897128.201 8                     -2711.413          27.000  
R 7  20264966.831 1 108479952.803 2     -2638.319          43.000    20264971.446 2  84373320.023 4     -2051.836          36.000  
R 8  21432892.904 1 114772181.393 2      1182.803          40.000    21432895.596 4               6       920.276          31.000  
R 9  23707197.450 9                     -3975.405          28.000                                                                  
R10  21836366.972 2 116400123.650 5     -3024.670          34.000    21318719.222 4  88387268.55824       757.862          33.000  
R11  22912791.511 2 122439006.979 5      -663.623          33.000    22912797.759 4               7      -516.652          28.000  
C19  25561496.130 1 133105416.905 3       815.561          38.000                                                                  
> 2024  1 10 15 44  1.0030000  0 12                     
G 4  25736069.031 8                      1951.004          29.000                                                                  
G16  21641390.128 1 113726269.745 3      -291.425          38.000                                                                  
G26  21296836.167 1 111915620.611 1     -2298.019          45.000    21296845.656 9                     -1787.707          22.000  
G28  23274442.896 1 122308023.058 3     -2005.862          39.000    23274450.182 1  95304982.481 3     -1563.201          38.000  
G31  22710885.042 4               7     -1622.903          31.000    22710895.005 2               6     -1264.368          28.000  
G32  22897775.261 1 120328625.522 3     -3480.897          36.000    22897790.373 8                     -2712.581          28.000  
R 7  20265460.018 1 108482591.842 1     -2639.826          43.000    20265464.425 2  84375372.626 4     -2053.415          35.000  
R 8  21432671.993 1 114770999.174 2      1181.684          40.000    21432674.755 4  89266337.299 5       918.129          31.000  
R 9  23707943.295 8                     -3975.554          27.000                                                                  
R10  21836934.339 2 116403148.534 4     -3025.171          34.000    21318536.754 4  88386511.38724       756.528          33.000  
R11  22912916.048 2 122439671.474 5      -665.428          33.000    22912921.965 4               7      -516.869          28.000  
C19  25561339.568 1 133104601.874 3       814.579          38.000                                                                  
> 2024  1 10 15 44  2.0030000  0 13                     
G 3  23895858.234 9                      -981.250          36.000                                                                  
G 4  25735697.211 8               7      1950.600          28.000                                                                  
G16  21641445.577 1 113726561.654 3      -292.273          38.000                                                                  
G26  21297273.615 1 111917918.879 1     -2298.573          44.000    21297283.487 9                     -1783.660          23.000  
G28  23274824.586 1 122310028.992 2     -2005.709          39.000    23274831.854 1  95306545.552 3     -1562.715          38.000  
G31  22711193.184 4               7     -1622.312          30.000    22711203.693 2               7     -1264.828          28.000  
G32  22898437.617 1 120332106.660 4     -3481.402          36.000    22898452.899 8               7     -2712.724          27.000  
R 7  20265953.389 1 108485232.119 2     -2640.608          43.000    20265957.544 2  84377426.172 4     -2053.887          35.000  
R 8  21432451.271 1 114769817.998 2      1180.865          40.000    21432454.087 4               6       917.893          31.000  
R 9  23708688.827 9                     -3975.659          27.000                                                                  
R10  21837501.894 2 116406173.873 4     -3024.908          35.000    21318354.223 4  88385755.00525       756.161          33.000  
R11  22913040.337 2 122440336.610 4      -665.066          33.000    22913046.441 4               7      -517.386          28.000  
C19  25561183.050 1 133103787.550 3       814.237          37.000                                                                  
> 2024  1 10 15 44  3.0030000  0 13                     
G 3  23896045.648 9 125574561.48535      -983.833          35.000    23896086.445 9                      -766.187          27.000  
G 4  25735324.407 4               7      1950.579          28.000                                                                  
G16  21641501.112 1 113726854.584 2      -293.207          38.000                                                                  
G26  21297711.184 1 111920218.010 1     -2299.545          44.000    21297721.873 9                     -1787.894          24.000  
G28  23275206.430 1 122312035.457 3     -2006.233          38.000    23275213.616 1  95308109.015 3     -1563.527          38.000  
G31  22711501.657 2               6     -1623.226          30.000    22711512.488 2               7     -1264.931          28.000  
G32  22899100.345 1 120335588.716 3     -3482.797          36.000    22899115.225 8                     -2713.166          28.000  
R 7  20266446.989 1 108487873.709 1     -2642.171          43.000    20266451.039 2  84379480.752 3     -2055.553          36.000  
R 8  21432230.686 1 114768637.956 2      1179.761          40.000    21432233.721 4               7       916.475          31.000  
R 9  23709431.813 8                     -3976.077          27.000                                                                  
R10  21838069.502 2 116409199.813 4     -3025.763          35.000    21318172.276 4  88384999.52525       755.266          33.000  
R11  22913165.003 2 122441002.649 5      -666.341          33.000    22913171.113 4               7      -518.246          27.000  
C19  25561026.644 1 133102974.062 3       813.621          37.000                                                                  
> 2024  1 10 15 44  4.0030000  0 13                     
G 3  23896232.808 8 125575545.80723      -984.870          35.000    23896266.528 9                      -767.519          27.000  
G 4  25734955.988 8 135238073.632 5      1950.259          28.000                                                                  
G16  21641557.014 1 113727148.490 2      -293.842          38.000                                                                  
G26  21298148.992 1 111922517.993 1     -2300.503          44.000    21298158.717 9                     -1795.123          25.000  
G28  23275588.406 1 122314042.342 3     -2007.111          38.000    23275595.451 1  95309672.816 2     -1563.897          38.000  
G31  22711810.402 4               7     -1625.133          31.000    22711821.241 2                     -1264.889          28.000  
G32  22899763.184 1 120339071.648 3     -3483.474          35.000    22899779.164 8               7     -2714.731          28.000  
R 7  20266940.717 1 108490516.571 1     -2643.562          43.000    20266944.813 2  84381536.304 3     -2056.093          36.000  
R 8  21432010.352 1 114767459.011 2      1178.424          40.000    21432013.529 4               6       915.832          30.000  
R 9  23710175.169 8                     -3975.951          26.000                                                                  
R10  21838637.367 2 116412226.295 4     -3026.495          34.000    21317990.424 2  88384244.91125       754.307          33.000  
R11  22913289.777 2 122441669.449 5      -667.484          33.000    22913295.985 4                      -518.639          27.000  
C19  25560870.517 1 133102161.390 3       812.346          36.000                                                                  
> 2024  1 10 15 44  5.0030000  0 13                     
G 3  23896421.496 4 125576531.01423      -985.676          35.000    23896447.854 9                      -767.975          27.000  
G 4  25734583.991 8               6      1948.976          28.000                                                                  
G16  21641612.776 1 113727443.347 3      -295.416          38.000                                                                  
G26  21298586.878 1 111924818.735 1     -2301.013          44.000    21298595.983 8                     -1793.392          26.000  
G28  23275970.311 1 122316049.569 2     -2007.259          39.000    23275977.409 1  95311236.889 3     -1563.992          38.000  
G31  22712119.228 4               7     -1623.399          31.000    22712130.153 2                     -1265.876          27.000  
G32  22900426.094 1 120342555.384 3     -3483.860          35.000    22900442.656 8               7     -2714.899          28.000  
R 7  20267434.633 1 108493160.647 1     -2644.507          43.000    20267438.661 2  84383592.775 3     -2056.613          36.000  
R 8  21431790.162 1 114766281.028 2      1177.723          40.000    21431793.505 4               7       916.186          30.000  
R 9  23710920.578 9                     -3977.493          26.000                                                                  
R10  21839205.334 2 116415253.269 4     -3027.222          34.000    21317808.479 2  88383491.12525       752.977          33.000  
R11  22913414.606 2 122442336.950 4      -668.199          33.000    22913420.922 4                      -519.585          27.000  
C19  25560714.436 1 133101349.384 3       811.844          36.000                                                                  
> 2024  1 10 15 44  6.0030000  0 13                     
G 3  23896608.890 4 125577517.14823      -986.509          35.000    23896634.353 9                      -768.672          27.000  
G 4  25734213.223 4               7      1949.349          28.000                                                                  
G16  21641668.857 1 113727739.084 4      -296.338          37.000                                                                  
G26  21299024.929 1 111927120.225 1     -2301.697          44.000    21299034.576 8                     -1793.704          26.000  
G28  23276352.467 1 122318057.172 2     -2008.105          39.000    23276359.441 1  95312801.247 3     -1564.553          38.000  
G31  22712427.860 2               6     -1624.750          31.000    22712439.208 2                     -1265.578          27.000  
G32  22901089.250 1 120346039.952 3     -3484.927          35.000    22901107.102 8               7     -2715.369          28.000  
R 7  20267929.036 1 108495805.926 1     -2645.837          43.000    20267932.758 2  84385650.229 3     -2057.688          36.000  
R 8  21431570.209 1 114765104.017 2      1176.710          39.000    21431573.565 4               6       915.332          29.000  
R 9  23711665.182 9                     -3975.925          26.000                                                                  
R10  21839773.397 2 116418280.650 4     -3026.672          34.000    21317627.122 2  88382738.09925       752.450          33.000  
R11  22913539.700 2 122443005.143 5      -668.895          33.000    22913545.999 4                      -520.168          27.000  
C19  25560558.538 1 133100538.084 3       811.240          36.000                                                                  
> 2024  1 10 15 44  7.0030000  0 13                     
G 3  23896796.766 2 125578504.19024      -987.045          35.000    23896824.096 9                      -769.445          27.000  
G 4  25733842.567 4               6      1949.418          28.000                                                                  
G16  21641725.181 1 113728035.697 4      -296.851          37.000                                                                  
G26  21299463.126 1 111929422.495 1     -2302.405          44.000    21299472.016 8               7     -1794.135          26.000  
G28  23276734.554 1 122320065.098 2     -2007.903          39.000    23276741.548 1  95314365.869 2     -1564.414          38.000  
G31  22712736.991 2               6     -1624.192          31.000    22712748.161 2                     -1265.467          26.000  
G32  22901752.566 1 120349525.343 3     -3485.312          36.000    22901770.971 8               7     -2715.441          28.000  
R 7  20268423.611 1 108498452.451 1     -2646.974          44.000    20268427.286 2  84387708.619 3     -2058.659          36.000  
R 8  21431350.469 1 114763928.017 2      1175.398          39.000    21431353.720 4               6       914.509          29.000  
R 9  23712408.393 9                     -3976.869          25.000                                                                  
R10  21840341.562 2 116421308.587 4     -3028.027          34.000    21317445.797 2  88381985.86025       752.285          33.000  
R11  22913664.802 2 122443674.029 4      -668.470          33.000    22913671.170 4               7      -520.249          28.000  
C19  25560402.836 1 133099727.513 3       810.476          36.000                                                                  
> 2024  1 10 15 44  8.0030000  0 13                     
G 3  23896984.855 1 125579491.56713      -988.677          36.000    23897012.213 9               7      -770.314          28.000  
G 4  25733471.475 4               6      1947.974          29.000                                                                  
G16  21641781.702 1 113728333.190 3      -297.821          37.000                                                                  
G26  21299901.388 1 111931725.426 1     -2303.377          44.000    21299910.711 8                     -1795.074          27.000  
G28  23277116.672 1 122322073.326 2     -2008.531          39.000    23277123.733 1  95315930.697 3     -1564.651          38.000  
G31  22713046.033 2               6     -1626.104          31.000    22713057.081 2                     -1266.824          26.000  
G32  22902416.078 1 120353011.444 3     -3486.357          36.000    22902434.799 8               7     -2717.193          28.000  
R 7  20268918.329 1 108501100.087 1     -2648.273          44.000    20268921.983 2  84389767.919 3     -2060.186          36.000  
R 8  21431130.850 1 114762752.890 2      1174.399          40.000    21431134.228 4               6       913.615          29.000  
R 9  23713151.800 9                     -3979.167          25.000                                                                  
R10  21840909.750 2 116424336.868 4     -3029.199          34.000    21317264.536 2  88381234.36525       751.109          34.000  
R11  22913790.189 2 122444343.563 4      -670.267          33.000    22913796.489 4               7      -520.870          28.000  
C19  25560247.151 1 133098917.582 3       809.211          36.000                                                                  
> 2024  1 10 15 44  9.0030000  0 13                     
G 3  23897173.041 1 125580480.407 3      -989.311          36.000    23897199.501 9                      -770.572          28.000  
G 4  25733100.525 4               6      1948.409          28.000                                                                  
G16  21641838.338 1 113728631.674 3      -299.170          37.000                                                                  
G26  21300339.851 1 111934029.225 1     -2304.169          44.000    21300349.232 8               7     -1795.871          27.000  
G28  23277498.929 1 122324081.996 3     -2008.710          39.000    23277505.913 1  95317495.925 2     -1565.656          38.000  
G31  22713355.151 4               6     -1626.698          31.000    22713366.332 2                     -1266.350          25.000  
G32  22903079.751 1 120356498.470 3     -3487.196          36.000    22903099.176 8               7     -2717.634          29.000  
R 7  20269413.239 1 108503749.036 1     -2649.619          44.000    20269416.761 2  84391828.197 3     -2060.586          35.000  
R 8  21430911.412 1 114761578.864 2      1173.145          40.000    21430914.758 4               6       913.257          29.000  
R 9  23713896.751 9                     -3976.669          24.000                                                                  
R10  21841478.055 2 116427365.724 4     -3029.309          34.000    21317083.367 2  88380483.75824       750.200          34.000  
R11  22913915.662 2 122445013.906 4      -670.862          33.000    22913921.798 4               6      -521.772          28.000  
C19  25560091.663 1 133098108.413 4       808.705          35.000                                                                  
> 2024  1 10 15 44 10.0030000  0 13                     
G 3  23897361.379 1 125581470.192 3      -990.048          36.000    23897386.629 8                      -771.956          27.000  
G 4  25732729.706 2               6      1948.599          29.000                                                                  
G16  21641895.162 1 113728931.070 3      -299.548          37.000                                                                  
G26  21300778.459 1 111936333.820 1     -2305.319          44.000    21300788.348 8               7     -1795.807          28.000  
G28  23277881.332 1 122326091.073 3     -2009.872          38.000    23277888.184 1  95319061.412 2     -1565.821          38.000  
G31  22713664.205 2 119361145.298 5     -1626.484          31.000    22713675.557 2                     -1266.690          25.000  
G32  22903743.545 1 120359986.347 3     -3488.391          35.000    22903762.894 8               6     -2717.895          29.000  
R 7  20269908.379 1 108506399.195 1     -2650.753          44.000    20269911.813 2  84393889.432 3     -2062.012          35.000  
R 8  21430692.098 2 114760405.859 2      1172.313          40.000    21430695.561 4               6       911.693          29.000  
R 9  23714639.936 9                     -3977.711          24.000                                                                  
R10  21842046.546 2 116430395.055 4     -3030.151          35.000    21316902.638 4  88379733.94825       749.957          34.000  
R11  22914041.160 2 122445684.923 5      -671.208          33.000    22914047.243 4               6      -522.090          28.000  
C19  25559936.348 1 133097299.976 3       808.067          35.000                                                                  
> 2024  1 10 15 44 11.0030000  0 13                     
G 3  23897549.790 1 125582460.913 3      -991.375          36.000    23897573.846 8                      -772.831          27.000  
G 4  25732358.754 2 135224431.012 5      1947.382          29.000                                                                  
G16  21641952.154 1 113729231.386 3      -300.110          37.000                                                                  
G26  21301217.162 1 111938639.166 1     -2305.804          44.000    21301227.867 8               6     -1796.844          28.000  
G28  23278263.786 1 122328100.474 3     -2009.429          38.000    23278270.612 1  95320627.181 2     -1565.660          38.000  
G31  22713973.520 2 119362771.461 5     -1627.005          31.000    22713984.884 4                     -1267.178          25.000  
G32  22904407.401 1 120363475.044 4     -3489.094          35.000    22904427.577 8               6     -2719.192          29.000  
R 7  20270403.775 1 108509050.562 1     -2651.937          44.000    20270407.008 2  84395951.610 3     -2062.450          35.000  
R 8  21430473.155 1 114759233.879 2      1171.158          40.000    21430476.539 4               6       910.611          28.000  
R 9  23715383.246 9                     -3978.458          23.000                                                                  
R10  21842614.954 2 116433424.883 4     -3029.877          35.000    21316721.970 2  88378984.99724       748.383          34.000  
R11  22914166.882 2 122446356.668 5      -672.139          34.000    22914172.784 4               6      -522.703          28.000  
C19  25559781.277 1 133096492.263 3       807.703          35.000                                                                  
> 2024  1 10 15 44 12.0030000  0 13                     
G 3  23897738.512 1 125583452.619 3      -991.866          36.000    23897762.542 8                      -773.464          27.000  
G 4  25731988.256 2 135222483.325 5      1947.686          29.000                                                                  
G16  21642009.403 1 113729532.787 3      -301.794          36.000                                                                  
G26  21301655.895 1 111940945.409 1     -2306.673          44.000    21301666.486 8  87226758.91815     -1797.580          28.000  
G28  23278646.360 1 122330110.390 3     -2010.124          38.000    23278653.073 1  95322193.340 2     -1566.083          38.000  
G31  22714282.873 2 119364398.094 5     -1626.944          32.000    22714294.431 4                     -1268.595          25.000  
G32  22905071.515 1 120366964.677 4     -3489.997          35.000    22905090.891 8               6     -2720.057          29.000  
R 7  20270899.377 1 108511703.301 1     -2653.520          43.000    20270902.727 2  84398014.855 3     -2064.183          36.000  
R 8  21430254.469 1 114758063.059 2      1170.170          40.000    21430257.754 4               7       910.380          28.000  
R 9  23716127.640 9                     -3978.096          24.000                                                                  
R10  21843183.631 2 116436455.349 4     -3030.505          34.000    21316541.546 2  88378236.90024       747.236          33.000  
R11  22914292.736 2 122447029.269 4      -673.171          34.000    22914298.567 4              16      -523.695          28.000  
C19  25559626.248 1 133095685.388 4       806.321          35.000                                                                  
> 2024  1 10 15 44 13.0030000  0 13                     
G 3  23897927.358 1 125584445.337 4      -993.155          36.000    23897951.465 8                      -774.042          27.000  
G 4  25731617.656 2               7      1947.322          29.000                                                                  
G16  21642066.799 1 113729835.144 4      -302.576          36.000                                                                  
G26  21302094.916 1 111943252.491 1     -2307.311          44.000    21302105.899 8  87228556.606 5     -1797.816          29.000  
G28  23279028.871 1 122332120.731 3     -2010.533          37.000    23279035.584 1  95323759.826 2     -1566.431          38.000  
G31  22714592.419 2 119366025.188 5     -1627.299          32.000    22714603.790 4                     -1267.821          25.000  
G32  22905735.923 1 120370455.186 3     -3490.387          36.000    22905754.204 8               6     -2720.127          29.000  
R 7  20271395.229 1 108514357.294 2     -2654.482          43.000    20271398.334 2  84400079.071 3     -2064.880          35.000  
R 8  21430035.898 1 114756893.314 2      1169.212          40.000    21430039.216 4               7       909.499          28.000  
R 9  23716874.219 9                     -3978.049          25.000                                                                  
R10  21843752.393 2 116439486.341 5     -3031.360          34.000    21316361.283 2  88377489.67524       746.713          34.000  
R11  22914418.966 2 122447702.642 3      -673.542          35.000    22914424.633 4               7      -524.118          28.000  
C19  25559471.456 1 133094879.289 3       806.120          35.000                                                                  
> 2024  1 10 15 44 14.0030000  0 13                     
G 3  23898116.318 1 125585438.937 3      -993.895          35.000    23898140.390 8               7      -774.819          27.000  
G 4  25731247.083 4               7      1947.366          30.000                                                                  
G16  21642124.336 1 113730138.428 3      -303.705          36.000                                                                  
G26  21302534.137 1 111945560.333 1     -2308.205          44.000    21302544.722 8               6     -1798.710          28.000  
G28  23279411.604 1 122334131.430 3     -2010.770          37.000    23279418.313 1  95325326.595 3     -1566.775          38.000  
G31  22714901.670 2 119367652.633 5     -1627.317          32.000    22714913.368 4                     -1268.000          24.000  
G32  22906400.613 1 120373946.524 3     -3491.790          36.000    22906418.859 8              16     -2720.918          29.000  
R 7  20271891.254 1 108517012.540 1     -2655.892          43.000    20271894.307 2  84402144.242 3     -2065.416          35.000  
R 8  21429817.495 1 114755724.564 2      1168.169          40.000    21429820.822 4               6       908.720          28.000  
R 9  23717620.417 9                     -3978.066          25.000                                                                  
R10  21844321.163 2 116442517.872 5     -3032.684          33.000    21316181.364 2  88376743.25224       745.865          34.000  
R11  22914544.963 2 122448376.691 3      -674.514          35.000    22914550.810 4               7      -525.069          28.000  
C19  25559316.625 1 133094073.942 4       804.148          35.000                                                                  
> 2024  1 10 15 44 15.0030000  0 13                     
G 3  23898305.392 1 125586433.529 3      -995.039          35.000    23898330.096 8               7      -775.116          28.000  
G 4  25730876.474 4               7      1946.742          30.000                                                                  
G16  21642182.062 1 113730442.615 3      -304.327          36.000                                                                  
G26  21302973.530 1 111947868.975 1     -2309.034          44.000    21302983.533 8               6     -1799.274          29.000  
G28  23279794.264 1 122336142.524 3     -2011.205          37.000    23279800.958 1  95326893.688 2     -1567.253          38.000  
G31  22715211.127 2 119369280.487 5     -1627.866          32.000    22715222.915 4                     -1268.817          23.000  
G32  22907065.234 1 120377438.724 4     -3492.754          36.000    22907083.341 8               6     -2721.644          29.000  
R 7  20272387.573 1 108519669.024 1     -2657.166          42.000    20272390.538 2  84404210.384 3     -2066.275          35.000  
R 8  21429599.256 1 114754556.788 2      1167.426          40.000    21429602.595 4                       907.805          27.000  
R 9  23718363.669 9                     -3977.438          25.000                                                                  
R10  21844889.996 2 116445549.788 5     -3032.098          33.000    21316001.475 2  88375997.66923       744.802          34.000  
R11  22914671.317 2 122449051.510 4      -674.842          35.000    22914677.082 4               7      -525.442          28.000  
C19  25559162.065 1 133093269.256 4       804.565          35.000                                                                  
> 2024  1 10 15 44 16.0030000  0 13                     
G 3  23898494.769 1 125587428.931 3      -995.621          35.000    23898518.760 8                      -775.642          27.000  
G 4  25730506.087 4               7      1946.262          30.000                                                                  
G16  21642239.820 1 113730747.681 3      -305.243          36.000                                                                  
G26  21303412.974 1 111950178.319 1     -2309.805          44.000    21303422.529 8               6     -1799.958          29.000  
G28  23280176.958 1 122338153.905 2     -2011.522          37.000    23280183.723 1  95328461.005 2     -1567.311          38.000  
G31  22715520.514 2 119370908.661 5     -1629.137          32.000    22715532.457 4                     -1268.673          23.000  
G32  22907729.977 1 120380931.671 4     -3493.915          35.000    22907748.425 8  93803383.131 5     -2721.894          29.000  
R 7  20272884.037 1 108522326.652 1     -2658.105          42.000    20272886.981 2  84406277.430 3     -2067.424          35.000  
R 8  21429381.308 1 114753389.934 2      1166.367          40.000    21429384.803 4                       906.937          27.000  
R 9  23719109.269 9                     -3979.804          24.000                                                                  
R10  21845458.919 2 116448582.181 5     -3032.190          32.000    21315821.901 2  88375252.80424       744.507          33.000  
R11  22914797.813 2 122449726.962 4      -675.656          35.000    22914803.679 4               6      -525.510          29.000  
C19  25559007.625 1 133092465.276 4       803.317          35.000                                                                  
> 2024  1 10 15 44 17.0030000  0 13                     
G 3  23898684.196 1 125588425.221 3      -997.128          35.000    23898709.265 8               7      -776.111          27.000  
G 4  25730135.805 4               7      1945.626          30.000                                                                  
G16  21642297.972 1 113731053.620 3      -305.841          36.000                                                                  
G26  21303852.527 1 111952488.396 1     -2310.426          44.000    21303862.117 8               6     -1799.970          29.000  
G28  23280559.740 1 122340165.614 3     -2011.451          36.000    23280566.521 1  95330028.588 3     -1567.954          38.000  
G31  22715829.891 2 119372537.068 5     -1628.621          32.000    22715841.841 8                     -1267.245          23.000  
G32  22908394.950 1 120384425.377 4     -3494.432          35.000    22908412.463 8  93806105.525 5     -2722.769          29.000  
R 7  20273380.746 1 108524985.482 2     -2659.367          42.000    20273383.571 2  84408345.385 4     -2068.204          35.000  
R 8  21429163.364 1 114752224.067 2      1165.503          39.000    21429166.964 4               7       906.366          26.000  
R 9  23719855.143 9                     -3976.791          24.000                                                                  
R10  21846027.814 2 116451615.063 5     -3032.794          31.000    21315642.400 2  88374508.73024       743.910          34.000  
R11  22914924.453 2 122450403.076 3      -676.296          36.000    22914930.063 4  95239230.571 5      -526.215          29.000  
C19  25558853.261 1 133091661.970 4       802.671          35.000                                                                  
> 2024  1 10 15 44 18.0030000  0 13                     
G 3  23898873.772 1 125589422.281 4      -997.358          35.000    23898898.313 8               7      -777.610          27.000  
G 4  25729765.568 2               7      1945.609          30.000                                                                  
G16  21642356.270 1 113731360.406 4      -307.709          36.000                                                                  
G26  21304292.234 1 111954799.114 1     -2311.035          44.000    21304302.291 8               6     -1801.124          29.000  
G28  23280942.588 1 122342177.580 3     -2012.231          36.000    23280949.436 1  95331596.327 2     -1567.578          38.000  
G31  22716139.697 2 119374165.774 4     -1628.833          33.000    22716151.200 8                     -1269.189          23.000  
G32  22909059.931 1 120387919.794 4     -3494.621          34.000    22909077.437 8  93808828.451 5     -2723.497          29.000  
R 7  20273877.616 1 108527645.389 2     -2660.438          42.000    20273880.370 2  84410414.239 3     -2069.686          35.000  
R 8  21428945.680 1 114751059.078 2      1164.742          39.000    21428949.301 4               7       905.885          26.000  
R 9  23720600.824 9                     -3978.156          23.000                                                                  
R10  21846596.788 2               6     -3032.940          31.000    21315463.120 2  88373765.37524       742.942          33.000  
R11  22915051.212 2 122451079.801 3      -677.076          35.000    22915056.752 4  95239756.888 5      -526.680          29.000  
C19  25558699.197 1 133090859.238 3       802.243          35.000                                                                  
> 2024  1 10 15 44 19.0030000  0 13                     
G 3  23899063.475 1 125590420.343 4      -998.593          35.000    23899087.415 8                      -778.565          27.000  
G 4  25729395.351 4               7      1946.748          30.000                                                                  
G16  21642414.692 1 113731668.082 3      -308.337          35.000                                                                  
G26  21304732.198 1 111957110.669 1     -2311.870          44.000    21304744.810 8               7     -1801.548          30.000  
G28  23281325.564 1 122344189.985 4     -2012.665          36.000    23281332.335 1  95333164.435 2     -1568.228          38.000  
G31  22716449.549 2 119375794.909 4     -1629.420          33.000    22716459.410 9                     -1269.308          23.000  
G32  22909725.230 1 120391415.107 4     -3495.726          34.000    22909742.080 8  93811552.044 5     -2723.948          29.000  
R 7  20274374.722 1 108530306.589 2     -2661.917          42.000    20274377.405 2  84412484.015 3     -2070.097          35.000  
R 8  21428728.202 1 114749895.217 2      1163.126          39.000    21428732.008 4                       905.394          26.000  
R 9  23721345.046 9                     -3979.955          23.000                                                                  
R10  21847165.956 4               7     -3035.028          30.000    21315284.222 2  88373022.90124       741.591          33.000  
R11  22915178.184 2 122451757.277 3      -677.964          35.000    22915183.747 4               6      -527.740          29.000  
C19  25558545.043 1 133090057.266 3       801.635          35.000                                                                  
> 2024  1 10 15 44 20.0030000  0 12                     
G 3  23899253.292 1 125591419.315 4      -999.064          35.000    23899278.036 8                      -778.743          27.000  
G 4  25729025.314 2               7      1945.214          29.000                                                                  
G16  21642473.246 1 113731976.795 3      -309.540          35.000                                                                  
G26  21305172.220 1 111959423.004 1     -2312.562          44.000    21305185.621 8               7     -1802.651          30.000  
G28  23281708.533 1 122346202.764 3     -2012.596          36.000    23281715.281 1  95334732.819 2     -1568.050          39.000  
G31  22716759.288 2 119377424.394 5     -1628.988          33.000    22716767.808 8                     -1269.528          23.000  
G32  22910390.632 2 120394911.264 5     -3496.581          33.000    22910407.310 8               6     -2724.116          28.000  
R 7  20274872.110 1 108532968.971 1     -2662.711          42.000    20274874.649 2  84414554.781 3     -2071.250          35.000  
R 8  21428510.925 1 114748732.354 2      1162.452          39.000    21428514.751 4                       904.632          25.000  
R10  21847735.138 4               7     -3034.466          30.000    21315105.282 2  88372281.18923       741.535          33.000  
R11  22915305.168 2 122452435.507 3      -678.536          35.000    22915310.643 4                      -527.701          30.000  
C19  25558391.203 1 133089256.050 4       801.100          35.000                                                                  
> 2024  1 10 15 44 21.0030000  0 12                     
G 3  23899443.379 1 125592419.124 3     -1000.035          35.000    23899469.150 8                      -779.766          27.000  
G 4  25728655.401 2               7      1945.458          29.000                                                                  
G16  21642531.958 1 113732286.232 3      -309.900          35.000                                                                  
G26  21305612.396 1 111961736.056 1     -2313.718          44.000    21305625.037 8               7     -1803.461          30.000  
G28  23282091.586 1 122348215.843 4     -2013.248          35.000    23282098.455 1  95336301.483 2     -1569.388          39.000  
G31  22717068.949 2 119379054.192 4     -1629.890          34.000    22717077.908 9                     -1271.235          22.000  
G32  22911056.068 2 120398408.140 5     -3497.329          33.000    22911072.868 8               6     -2725.464          28.000  
R 7  20275369.618 1 108535632.502 2     -2664.430          42.000    20275372.253 2  84416626.419 3     -2072.550          35.000  
R 8  21428293.783 2 114747570.439 2      1160.974          39.000    21428297.632 4                       902.943          25.000  
R10  21848304.289 4               7     -3034.663          29.000    21314926.412 2  88371540.28124       739.964          33.000  
R11  22915432.210 2 122453114.357 3      -679.273          36.000    22915437.666 4                      -528.451          30.000  
C19  25558237.327 1 133088455.469 4       800.193          35.000                                                                  
> 2024  1 10 15 44 22.0030000  0 12                     
G 3  23899633.667 1 125593419.851 4     -1000.735          35.000    23899657.821 8                      -780.727          27.000  
G 4  25728285.439 2 135203022.912 5      1944.412          29.000                                                                  
G16  21642590.874 1 113732596.627 4      -310.101          35.000                                                                  
G26  21306052.698 1 111964049.858 1     -2314.280          44.000    21306066.758 8               7     -1803.098          30.000  
G28  23282474.576 1 122350229.256 4     -2013.571          35.000    23282481.668 1  95337870.373 2     -1568.901          39.000  
G31  22717378.931 2 119380684.331 4     -1630.170          34.000    22717385.710 8                     -1270.285          23.000  
G32  22911721.644 2 120401905.831 5     -3497.787          32.000    22911737.589 8               7     -2725.722          28.000  
R 7  20275867.454 1 108538297.232 2     -2665.199          41.000    20275870.024 2  84418698.966 4     -2073.088          36.000  
R 8  21428076.909 2 114746409.536 2      1160.430          39.000    21428080.674 4                       901.745          25.000  
R10  21848873.696 4               6     -3035.358          29.000    21314747.856 2  88370800.14023       739.782          34.000  
R11  22915559.248 2 122453793.944 3      -680.048          35.000    22915564.989 4               7      -529.576          30.000  
C19  25558083.761 1 133087655.606 3       799.608          35.000                                                                  
> 2024  1 10 15 44 23.0030000  0 12                     
G 3  23899824.218 1 125594421.371 4     -1001.861          34.000    23899847.770 8                      -780.356          28.000  
G 4  25727915.558 2 135201078.268 5      1944.251          29.000                                                                  
G16  21642649.970 1 113732907.813 4      -311.646          35.000                                                                  
G26  21306493.138 1 111966364.269 1     -2314.564          44.000    21306504.479 8               7     -1803.407          30.000  
G28  23282857.737 1 122352242.909 3     -2013.339          35.000    23282864.871 1  95339439.430 2     -1568.785          38.000  
G31  22717689.226 1 119382314.726 3     -1630.791          35.000    22717694.777 8                     -1270.672          23.000  
G32  22912387.467 2 120405404.219 5     -3498.486          31.000    22912401.890 8               7     -2726.074          28.000  
R 7  20276365.452 1 108540963.061 2     -2666.253          41.000    20276367.979 2  84420772.359 4     -2073.435          35.000  
R 8  21427860.272 1 114745249.473 2      1159.573          39.000    21427863.744 4                       902.400          24.000  
R10  21849443.003 4               7     -3035.524          28.000    21314569.390 2  88370060.67424       739.462          34.000  
R11  22915686.654 2 122454474.073 3      -680.217          35.000    22915692.531 4               7      -529.815          31.000  
C19  25557930.345 1 133086856.303 4       799.126          35.000                                                                  
> 2024  1 10 15 44 24.0030000  0 12                     
G 3  23900014.751 1 125595423.583 4     -1002.475          34.000    23900038.000 8                      -781.273          27.000  
G 4  25727545.698 2 135199133.682 5      1944.238          29.000                                                                  
G16  21642709.115 1 113733219.710 4      -312.079          35.000                                                                  
G26  21306933.608 1 111968679.286 1     -2315.158          44.000    21306946.011 8               6     -1804.520          30.000  
G28  23283240.609 1 122354256.734 3     -2013.703          35.000    23283248.138 1  95341008.681 2     -1569.499          39.000  
G31  22717999.590 1 119383945.256 3     -1630.334          36.000    22718004.333 8                     -1268.894          23.000  
G32  22913053.337 2 120408903.278 5     -3499.455          30.000    22913067.567 8                     -2726.960          27.000  
R 7  20276863.470 1 108543629.947 2     -2667.358          41.000    20276866.245 2  84422846.631 4     -2074.748          36.000  
R 8  21427643.690 2 114744090.230 2      1158.839          38.000    21427647.119 4                       901.590          24.000  
R10  21850012.478 4                     -3036.781          27.000    21314391.131 2  88369321.92824       738.720          34.000  
R11  22915814.044 2 122455154.748 4      -681.060          35.000    22915820.050 4               7      -529.769          31.000  
C19  25557776.831 1 133086057.561 4       798.464          35.000                                                                  
> 2024  1 10 15 44 25.0030000  0 12                     
G 3  23900205.437 1 125596426.676 4     -1003.519          34.000    23900229.506 8               6      -782.221          27.000  
G 4  25727175.619 2               6      1944.163          29.000                                                                  
G16  21642768.436 1 113733532.477 4      -313.116          34.000                                                                  
