     3.03           OBSERVATION DATA    M: Mixed            RINEX VERSION / TYPE
CONVBIN 1.0.1 Emlid                     20230915 185026 UTC PGM / RUN BY / DATE 
log: MACROCOSM-5_raw_202309151848.23                        COMMENT             
format: u-blox                                              COMMENT             
                                                            MARKER NAME         
                                                            MARKER NUMBER       
                                                            MARKER TYPE         
                                                            OBSERVER / AGENCY   
                    EMLID REACH M2                          REC # / TYPE / VERS 
                                                            ANT # / TYPE        
  2481060.7360 -5525688.6537  1992268.0772                  APPROX POSITION XYZ 
        0.0000        0.0000        0.0000                  ANTENNA: DELTA H/E/N
G    8 C1C L1C D1C S1C C2X L2X D2X S2X                      SYS / # / OBS TYPES 
R    8 C1C L1C D1C S1C C2C L2C D2C S2C                      SYS / # / OBS TYPES 
E    8 C1X L1X D1X S1X C7X L7X D7X S7X                      SYS / # / OBS TYPES 
J    8 C1C L1C D1C S1C C2X L2X D2X S2X                      SYS / # / OBS TYPES 
C    8 C2I L2I D2I S2I C7I L7I D7I S7I                      SYS / # / OBS TYPES 
  2023     9    15    18    49   20.1970000     GPS         TIME OF FIRST OBS   
  2023     9    15    18    50   44.1970000     GPS         TIME OF LAST OBS    
G                                                           SYS / PHASE SHIFT   
R                                                           SYS / PHASE SHIFT   
E                                                           SYS / PHASE SHIFT   
J                                                           SYS / PHASE SHIFT   
C                                                           SYS / PHASE SHIFT   
  0                                                         GLONASS SLOT / FRQ #
 C1C    0.000 C1P    0.000 C2C    0.000 C2P    0.000        GLONASS COD/PHS/BIS 
                                                            END OF HEADER       
> 2023  9 15 18 49 20.1970000  0 16                     
G10  21592683.649 1 113470317.16211      1749.698          47.000    21592692.987 1  88418467.59012      1363.373          39.000  
G18  20484601.331 1 107647306.039 1     -3314.447          45.000    20484608.911 1  83881048.48112     -2582.797          41.000  
G23  19671320.195 1 103373484.68311       118.572          44.000    19671326.376 1  80550791.89112        92.498          42.000  
G24  21292598.696 1 111893360.69511     -4150.411          43.000    21292608.643 1  87189672.321 2     -3234.058          40.000  
G25  21538151.894 1 113183751.291 1      1649.363          45.000    21538163.516 1  88195178.686 2      1285.173          40.000  
G32  22844255.120 1 120047370.331 2       -34.259          40.000    22844264.384 9               6       -25.964          31.000  
R 1  22003717.511 1 117622480.276 2       595.445          40.000    22003731.148 4               7       462.710          31.000  
R 8  20611341.234 1 110372796.401 1      -540.006          46.000    20611349.423 2  85845541.785 3      -420.176          35.000  
R10  19908420.772 2 106123084.22212     -2898.041          39.000                                                                  
R11  19116411.622 1 102152306.736 1      1212.491          49.000    19116416.038 1  79451813.131 1       942.986          43.000  
R23  20718160.641 1 110828188.615 1     -3428.290          43.000                                                                  
E 9  24039382.298 1 126327806.528 2     -1533.483          40.000                                                                  
E24  24792755.800 1 130286810.683 1      1192.436          45.000                                                                  
E36  23376394.133 1 122843779.771 1     -1766.377          47.000                                                                  
C14  22634739.427 1 117865027.350 1       426.286          45.000    22634747.589 1  91140748.12412       330.024          39.000  
C24  21163060.963 1 110201611.479 1       724.627          48.000                                                                  
> 2023  9 15 18 49 20.3970000  0 16                     
G10  21592617.019 1 113469967.158 1      1749.894          47.000    21592626.384 1  88418194.854 2      1363.733          39.000  
G18  20484727.481 1 107647968.912 1     -3314.312          45.000    20484735.036 1  83881564.998 2     -2582.677          41.000  
G23  19671315.664 1 103373460.939 1       118.545          44.000    19671321.854 1  80550773.395 2        92.498          42.000  
G24  21292756.619 1 111894190.743 1     -4150.167          43.000    21292766.570 1  87190319.119 2     -3233.988          40.000  
G25  21538089.059 1 113183421.378 1      1649.424          45.000    21538100.723 1  88194921.603 2      1285.449          40.000  
G32  22844256.424 1 120047377.102 2       -33.929          40.000    22844264.582 9               7       -26.361          31.000  
R 1  22003695.228 1 117622361.188 2       595.357          39.000    22003708.780 4               7       462.790          31.000  
R 8  20611361.439 1 110372904.331 1      -539.518          46.000    20611369.513 2  85845625.708 3      -419.279          35.000  
R10  19908529.528 2 106123663.793 2     -2898.004          39.000                                                                  
R11  19116366.256 1 102152064.204 1      1212.606          49.000    19116370.594 1  79451624.490 1       943.080          43.000  
R23  20718288.850 1 110828874.248 1     -3428.079          43.000                                                                  
E 9  24039440.655 1 126328113.140 2     -1533.097          40.000                                                                  
E24  24792710.302 1 130286572.137 1      1192.646          45.000                                                                  
E36  23376461.344 1 122844132.993 1     -1766.069          47.000                                                                  
C14  22634723.105 1 117864942.022 1       426.623          45.000    22634731.163 1  91140682.155 2       329.987          39.000  
C24  21163033.050 1 110201466.503 1       724.751          48.000                                                                  
> 2023  9 15 18 49 20.5970000  0 16                     
G10  21592550.384 1 113469617.149 1      1750.042          47.000    21592559.780 1  88417922.133 2      1363.622          39.000  
G18  20484853.632 1 107648631.799 1     -3314.427          45.000    20484861.146 1  83882081.539 2     -2582.920          42.000  
G23  19671311.172 1 103373437.199 1       118.632          44.000    19671317.316 1  80550754.913 2        92.383          42.000  
G24  21292914.586 1 111895020.796 1     -4150.358          43.000    21292924.550 1  87190965.912 2     -3234.003          40.000  
G25  21538026.264 1 113183091.451 1      1649.404          45.000    21538037.940 1  88194664.529 2      1285.378          40.000  
G32  22844257.647 1 120047383.859 2       -33.716          40.000    22844266.962 9               6       -26.526          31.000  
R 1  22003672.922 1 117622242.084 2       595.303          39.000    22003686.535 4               7       463.071          31.000  
R 8  20611381.652 1 110373012.269 1      -539.767          46.000    20611389.656 2  85845709.673 3      -419.667          35.000  
R10  19908638.260 2 106124243.397 2     -2898.291          39.000                                                                  
R11  19116320.883 1 102151821.708 1      1212.278          49.000    19116325.218 1  79451435.882 1       943.023          43.000  
R23  20718417.037 1 110829559.895 1     -3428.479          43.000                                                                  
E 9  24039499.094 1 126328419.753 2     -1533.127          40.000                                                                  
E24  24792664.976 1 130286333.588 1      1192.696          45.000                                                                  
E36  23376528.641 1 122844486.251 1     -1766.398          47.000                                                                  
C14  22634706.732 1 117864856.699 1       426.660          45.000    22634714.785 1  91140616.174 2       330.204          39.000  
C24  21163005.127 1 110201321.543 1       724.837          48.000                                                                  
> 2023  9 15 18 49 20.7970000  0 16                     
G10  21592483.793 1 113469267.175 1      1749.966          47.000    21592493.198 1  88417649.439 2      1363.259          39.000  
G18  20484979.764 1 107649294.724 1     -3314.598          45.000    20484987.328 1  83882598.101 2     -2582.834          42.000  
G23  19671306.656 1 103373413.513 1       118.568          44.000    19671312.794 1  80550736.449 1        92.180          42.000  
G24  21293072.559 1 111895850.892 1     -4150.482          43.000    21293082.505 1  87191612.741 2     -3234.352          40.000  
G25  21537963.458 1 113182761.575 1      1649.302          45.000    21537975.150 1  88194407.477 2      1285.206          40.000  
G32  22844258.943 1 120047390.668 2       -34.088          40.000    22844269.877 9               6       -26.593          31.000  
R 1  22003650.605 1 117622122.992 2       595.565          39.000    22003664.193 4               6       463.718          31.000  
R 8  20611401.788 1 110373120.232 1      -539.832          45.000    20611409.817 2  85845793.641 3      -420.004          35.000  
R10  19908746.965 2 106124823.058 2     -2898.395          39.000                                                                  
R11  19116275.534 1 102151579.246 1      1212.241          49.000    19116279.820 1  79451247.317 1       942.554          43.000  
R23  20718545.240 1 110830245.574 1     -3428.475          43.000                                                                  
E 9  24039557.510 1 126328726.375 2     -1533.042          40.000                                                                  
E24  24792619.571 1 130286095.082 1      1192.511          45.000                                                                  
E36  23376595.753 1 122844839.541 1     -1766.636          47.000                                                                  
C14  22634690.315 1 117864771.401 1       426.545          45.000    22634698.425 1  91140550.231 2       329.780          39.000  
C24  21162977.341 1 110201176.638 1       724.529          48.000                                                                  
> 2023  9 15 18 49 20.9970000  0 16                     
G10  21592417.248 1 113468917.215 1      1749.581          47.000    21592426.615 1  88417376.740 2      1363.041          39.000  
G18  20485105.926 1 107649957.680 1     -3314.896          45.000    20485113.495 1  83883114.687 2     -2583.103          42.000  
G23  19671302.198 1 103373389.853 1       118.107          44.000    19671308.321 1  80550718.010 1        92.064          42.000  
G24  21293230.509 1 111896680.998 1     -4150.756          43.000    21293240.490 1  87192259.580 2     -3234.587          40.000  
G25  21537900.727 1 113182431.700 1      1649.106          45.000    21537912.379 1  88194150.443 2      1284.926          40.000  
G32  22844260.234 1 120047397.476 2       -34.241          40.000    22844270.775 9               6       -27.148          31.000  
R 1  22003628.308 1 117622003.917 2       595.426          39.000    22003641.837 4               6       463.286          31.000  
R 8  20611421.976 1 110373228.196 1      -540.140          45.000    20611429.964 2  85845877.608 3      -419.965          35.000  
R10  19908855.695 2 106125402.766 2     -2898.846          39.000                                                                  
R11  19116230.146 1 102151336.834 1      1211.719          49.000    19116234.448 1  79451058.767 1       942.516          43.000  
R23  20718673.404 1 110830931.290 1     -3428.822          44.000                                                                  
E 9  24039615.872 1 126329033.025 2     -1533.382          40.000                                                                  
E24  24792574.207 1 130285856.576 1      1192.346          45.000                                                                  
E36  23376662.858 1 122845192.853 1     -1766.794          47.000                                                                  
C14  22634673.932 1 117864686.105 1       426.273          45.000    22634682.042 1  91140484.256 2       329.586          39.000  
C24  21162949.512 1 110201031.753 1       724.067          48.000                                                                  
> 2023  9 15 18 49 21.1970000  0 16                     
G10  21592350.666 1 113468567.265 1      1749.622          47.000    21592360.021 1  88417104.032 2      1363.416          39.000  
G18  20485232.117 1 107650620.663 1     -3314.846          45.000    20485239.630 1  83883631.297 1     -2582.888          42.000  
G23  19671297.679 1 103373366.215 1       118.145          44.000    19671303.763 1  80550699.596 1        92.077          42.000  
G24  21293388.438 1 111897511.129 1     -4150.701          43.000    21293398.501 1  87192906.430 2     -3234.371          41.000  
G25  21537837.978 1 113182101.842 1      1649.260          45.000    21537849.599 1  88193893.411 2      1285.061          40.000  
G32  22844261.517 1 120047404.279 2       -33.893          40.000    22844271.545 9               6       -26.996          31.000  
R 1  22003606.026 1 117621884.834 2       595.309          39.000    22003619.445 4               6       462.596          31.000  
R 8  20611442.135 1 110373336.158 1      -539.934          45.000    20611450.163 2  85845961.603 3      -419.539          35.000  
R10  19908964.447 2 106125982.491 2     -2898.792          38.000                                                                  
R11  19116184.759 1 102151094.445 1      1211.868          49.000    19116189.120 1  79450870.248 1       942.481          43.000  
R23  20718801.591 1 110831617.031 1     -3428.823          44.000                                                                  
E 9  24039674.217 1 126329339.664 2     -1533.165          40.000                                                                  
E24  24792528.722 1 130285618.090 1      1192.362          45.000                                                                  
E36  23376730.050 1 122845546.192 1     -1766.702          47.000                                                                  
C14  22634657.525 1 117864600.814 1       426.422          45.000    22634665.637 1  91140418.308 2       329.846          39.000  
C24  21162921.722 1 110200886.886 1       724.330          48.000                                                                  
> 2023  9 15 18 49 21.3970000  0 16                     
G10  21592284.065 1 113468217.307 1      1749.639          47.000    21592293.410 1  88416831.351 2      1363.400          39.000  
G18  20485358.280 1 107651283.679 1     -3315.208          45.000    20485365.827 1  83884147.926 1     -2583.354          42.000  
G23  19671293.263 1 103373342.588 1       117.985          44.000    19671299.227 1  80550681.177 2        92.047          42.000  
G24  21293546.393 1 111898341.264 1     -4150.825          43.000    21293556.511 1  87193553.295 2     -3234.622          40.000  
G25  21537775.183 1 113181771.988 1      1649.006          45.000    21537786.801 1  88193636.362 2      1285.160          40.000  
G32  22844262.786 1 120047411.101 2       -34.314          41.000    22844273.199 9               6       -26.984          31.000  
R 1  22003583.698 1 117621765.751 2       594.993          39.000    22003597.135 4               6       462.405          31.000  
R 8  20611462.304 1 110373444.135 1      -540.061          45.000    20611470.349 2  85846045.575 3      -419.963          35.000  
R10  19909073.195 2 106126562.282 2     -2899.475          38.000                                                                  
R11  19116139.417 1 102150852.099 1      1211.616          49.000    19116143.867 1  79450681.753 1       942.378          43.000  
R23  20718929.756 1 110832302.787 1     -3429.134          44.000                                                                  
E 9  24039732.569 1 126329646.302 2     -1533.248          40.000                                                                  
E24  24792483.298 1 130285379.598 1      1192.418          45.000                                                                  
E36  23376797.214 1 122845899.552 1     -1766.941          47.000                                                                  
C14  22634641.215 1 117864515.516 1       426.421          45.000    22634649.255 1  91140352.364 2       329.519          39.000  
C24  21162893.837 1 110200742.038 1       724.093          48.000                                                                  
> 2023  9 15 18 49 21.5970000  0 16                     
G10  21592217.479 1 113467867.391 1      1749.578          46.000    21592226.807 1  88416558.668 2      1363.630          39.000  
G18  20485484.469 1 107651946.716 1     -3315.314          45.000    20485492.015 1  83884664.573 1     -2583.354          42.000  
G23  19671288.768 1 103373319.005 1       117.975          44.000    19671294.707 1  80550662.805 2        91.919          42.000  
G24  21293704.393 1 111899171.420 1     -4150.860          43.000    21293714.469 1  87194200.149 2     -3234.152          40.000  
G25  21537712.412 1 113181442.158 1      1649.112          45.000    21537724.042 1  88193379.355 2      1285.406          40.000  
G32  22844264.092 1 120047417.935 2       -34.332          41.000    22844275.923 9               6       -26.892          31.000  
R 1  22003561.408 1 117621646.667 2       595.494          39.000    22003574.735 4               6       462.295          31.000  
R 8  20611482.476 1 110373552.128 1      -540.028          45.000    20611490.533 2  85846129.571 3      -420.260          35.000  
R10  19909181.936 2 106127142.082 2     -2899.304          38.000                                                                  
R11  19116094.077 1 102150609.802 1      1211.360          49.000    19116098.517 1  79450493.297 1       942.330          43.000  
R23  20719057.910 1 110832988.579 1     -3428.974          43.000                                                                  
E 9  24039790.888 1 126329952.966 2     -1533.162          40.000                                                                  
E24  24792437.869 1 130285141.149 1      1192.159          45.000                                                                  
E36  23376864.427 1 122846252.960 1     -1767.112          47.000                                                                  
C14  22634624.899 1 117864430.245 1       426.491          45.000    22634632.883 1  91140286.407 2       329.902          39.000  
C24  21162866.025 1 110200597.234 1       724.042          48.000                                                                  
> 2023  9 15 18 49 21.7970000  0 16                     
G10  21592150.897 1 113467517.449 1      1749.750          46.000    21592160.239 1  88416286.018 2      1363.509          39.000  
G18  20485610.629 1 107652609.749 1     -3314.948          45.000    20485618.233 1  83885181.231 1     -2583.199          42.000  
G23  19671284.301 1 103373295.421 1       118.050          44.000    19671290.205 1  80550644.421 2        92.184          42.000  
G24  21293862.366 1 111900001.587 1     -4150.586          43.000    21293872.484 1  87194847.055 2     -3234.424          40.000  
G25  21537649.619 1 113181112.322 1      1649.167          45.000    21537661.303 1  88193122.343 2      1285.355          40.000  
G32  22844265.367 1 120047424.759 2       -33.966          41.000    22844278.626 9               6       -27.069          31.000  
R 1  22003539.095 1 117621527.577 2       595.198          40.000    22003552.482 4               6       462.330          31.000  
R 8  20611502.626 1 110373660.099 1      -539.764          45.000    20611510.610 2  85846213.537 3      -419.623          35.000  
R10  19909290.701 2 106127721.912 2     -2899.054          38.000                                                                  
R11  19116048.662 1 102150367.507 1      1211.493          49.000    19116053.144 1  79450304.850 1       942.394          43.000  
R23  20719186.140 1 110833674.385 1     -3429.041          43.000                                                                  
E 9  24039849.189 1 126330259.596 2     -1532.981          40.000                                                                  
E24  24792392.506 1 130284902.674 1      1192.431          45.000                                                                  
E36  23376931.805 1 122846606.355 1     -1766.888          47.000                                                                  
C14  22634608.521 1 117864344.947 1       426.661          45.000    22634616.498 1  91140220.469 2       329.971          39.000  
C24  21162838.149 1 110200452.428 1       724.055          48.000                                                                  
> 2023  9 15 18 49 21.9970000  0 16                     
G10  21592084.335 1 113467167.523 1      1749.526          46.000    21592093.659 1  88416013.337 2      1363.150          39.000  
G18  20485736.816 1 107653272.822 1     -3315.426          45.000    20485744.430 1  83885697.902 1     -2583.445          42.000  
G23  19671279.849 1 103373271.856 1       117.612          44.000    19671285.708 1  80550626.054 2        91.833          42.000  
G24  21294020.389 1 111900831.758 1     -4150.809          43.000    21294030.445 1  87195493.949 2     -3234.839          40.000  
G25  21537586.830 1 113180782.505 1      1648.839          45.000    21537598.535 1  88192865.346 2      1284.982          40.000  
G32  22844266.659 1 120047431.581 2       -34.247          41.000    22844280.533 9               6       -26.801          31.000  
R 1  22003516.792 1 117621408.467 2       595.165          40.000    22003530.179 4               6       462.758          31.000  
R 8  20611522.808 1 110373768.076 1      -540.037          45.000    20611530.826 2  85846297.535 3      -420.223          35.000  
R10  19909399.494 2 106128301.812 2     -2899.756          38.000                                                                  
R11  19116003.344 1 102150125.259 1      1211.123          49.000    19116007.802 1  79450116.430 1       941.886          43.000  
R23  20719314.323 1 110834360.202 1     -3429.192          43.000                                                                  
E 9  24039907.600 1 126330566.228 2     -1533.130          40.000                                                                  
E24  24792347.075 1 130284664.213 1      1192.244          45.000                                                                  
E36  23376999.067 1 122846959.782 1     -1767.177          47.000                                                                  
C14  22634592.182 1 117864259.662 1       426.354          45.000    22634600.127 1  91140154.519 2       329.680          39.000  
C24  21162810.383 1 110200307.644 1       723.757          48.000                                                                  
> 2023  9 15 18 49 22.1970000  0 16                     
G10  21592017.725 1 113466817.576 1      1749.603          46.000    21592027.033 1  88415740.647 2      1363.572          39.000  
G18  20485862.961 1 107653935.895 1     -3315.569          45.000    20485870.621 1  83886214.579 2     -2583.387          42.000  
G23  19671275.390 1 103373248.293 1       117.656          44.000    19671281.249 1  80550607.695 2        91.512          42.000  
G24  21294178.363 1 111901661.934 1     -4151.006          43.000    21294188.438 1  87196140.837 2     -3234.850          40.000  
G25  21537524.020 1 113180452.674 1      1648.846          45.000    21537535.828 1  88192608.335 2      1285.141          40.000  
G32  22844267.977 1 120047438.390 2       -34.149          41.000    22844280.494 9  93543496.789 5       -26.190          31.000  
R 1  22003494.474 1 117621289.332 2       595.501          39.000    22003507.908 4               6       463.748          30.000  
R 8  20611542.988 1 110373876.036 1      -540.011          45.000    20611550.978 2  85846381.519 4      -420.563          35.000  
R10  19909508.283 2 106128881.701 3     -2900.073          38.000                                                                  
R11  19115958.035 1 102149883.015 1      1211.041          49.000    19115962.463 1  79449928.007 1       942.109          43.000  
R23  20719442.555 1 110835046.042 1     -3429.460          43.000                                                                  
E 9  24039965.890 1 126330872.875 2     -1533.242          40.000                                                                  
E24  24792301.846 1 130284425.740 1      1192.205          45.000                                                                  
E36  23377066.313 1 122847313.215 1     -1767.384          47.000                                                                  
C14  22634575.780 1 117864174.357 1       426.488          45.000    22634583.763 1  91140088.563 2       329.470          39.000  
C24  21162782.605 1 110200162.861 1       723.659          48.000                                                                  
> 2023  9 15 18 49 22.3970000  0 16                     
G10  21591951.175 1 113466467.646 1      1749.668          46.000    21591960.469 1  88415467.981 2      1363.351          39.000  
G18  20485989.168 1 107654598.986 1     -3315.425          45.000    20485996.770 1  83886731.283 2     -2583.469          42.000  
G23  19671270.952 1 103373224.743 1       117.922          44.000    19671276.793 1  80550589.338 1        91.988          42.000  
G24  21294336.365 1 111902492.131 1     -4151.127          43.000    21294346.386 1  87196787.715 2     -3234.353          40.000  
G25  21537461.247 1 113180122.856 1      1649.078          45.000    21537473.083 1  88192351.351 2      1284.983          40.000  
G32  22844269.272 1 120047445.228 2       -34.161          41.000    22844281.992 9  93543502.129 5       -27.045          31.000  
R 1  22003472.206 1 117621170.220 2       595.591          40.000    22003485.586 4               6       463.667          30.000  
R 8  20611563.170 1 110373984.006 1      -539.746          45.000    20611571.096 2  85846465.456 4      -419.841          35.000  
R10  19909617.051 2 106129461.612 3     -2899.371          38.000                                                                  
R11  19115912.738 1 102149640.812 1      1210.990          49.000    19115917.100 1  79449739.627 1       941.710          43.000  
R23  20719570.764 1 110835731.898 1     -3429.247          43.000                                                                  
E 9  24040024.238 1 126331179.504 2     -1533.308          40.000                                                                  
E24  24792256.415 1 130284187.276 1      1192.354          45.000                                                                  
E36  23377133.562 1 122847666.669 1     -1767.357          47.000                                                                  
C14  22634559.355 1 117864089.065 1       426.532          45.000    22634567.409 1  91140022.594 2       329.981          39.000  
C24  21162754.858 1 110200018.105 1       723.792          48.000                                                                  
> 2023  9 15 18 49 22.5970000  0 16                     
G10  21591884.596 1 113466117.711 1      1749.630          46.000    21591893.907 1  88415195.305 2      1363.377          39.000  
G18  20486115.326 1 107655262.095 1     -3315.696          45.000    20486122.952 1  83887247.989 1     -2583.639          42.000  
G23  19671266.489 1 103373201.215 1       117.676          44.000    19671272.294 1  80550571.013 2        91.792          42.000  
G24  21294494.363 1 111903322.317 1     -4150.778          43.000    21294504.396 1  87197434.620 2     -3234.466          40.000  
G25  21537398.449 1 113179793.034 1      1649.055          45.000    21537410.282 1  88192094.350 2      1284.914          40.000  
G32  22844270.557 1 120047452.041 2       -34.076          41.000    22844283.877 9  93543507.455 5       -26.740          31.000  
R 1  22003449.899 1 117621051.084 2       595.515          39.000    22003463.338 4               7       463.418          30.000  
R 8  20611583.304 1 110374091.968 1      -539.855          45.000    20611591.246 2  85846549.414 4      -419.471          35.000  
R10  19909725.849 2 106130041.589 2     -2899.841          38.000                                                                  
R11  19115867.440 1 102149398.628 1      1210.753          49.000    19115871.771 1  79449551.248 1       941.772          43.000  
R23  20719698.959 1 110836417.769 1     -3429.447          43.000                                                                  
E 9  24040082.551 1 126331486.118 2     -1533.072          40.000                                                                  
E24  24792211.228 1 130283948.817 1      1192.294          45.000                                                                  
E36  23377200.788 1 122848020.129 1     -1767.391          47.000                                                                  
C14  22634542.871 1 117864003.763 1       426.359          45.000    22634551.043 1  91139956.633 2       330.038          39.000  
C24  21162727.066 1 110199873.362 1       723.622          48.000                                                                  
> 2023  9 15 18 49 22.7970000  0 16                     
G10  21591817.942 1 113465767.752 1      1749.956          46.000    21591827.344 1  88414922.617 2      1363.108          39.000  
G18  20486241.532 1 107655925.200 1     -3315.547          45.000    20486249.145 1  83887764.687 2     -2583.552          42.000  
G23  19671262.022 1 103373177.670 1       117.749          44.000    19671267.821 1  80550552.670 1        91.643          42.000  
G24  21294652.357 1 111904152.503 1     -4150.816          43.000    21294662.359 1  87198081.517 2     -3234.481          40.000  
G25  21537335.649 1 113179463.193 1      1649.359          45.000    21537347.481 1  88191837.341 2      1285.042          40.000  
G32  22844271.871 1 120047458.845 2       -33.826          41.000    22844286.766 8  93543512.781 5       -26.495          31.000  
R 1  22003427.615 1 117620931.905 2       595.734          39.000    22003440.985 4               7       463.314          30.000  
R 8  20611603.494 1 110374199.904 1      -539.741          46.000    20611611.366 2  85846633.381 3      -419.731          35.000  
R10  19909834.700 2 106130621.553 3     -2900.165          38.000                                                                  
R11  19115822.135 1 102149156.453 1      1210.820          49.000    19115826.424 1  79449362.884 1       941.901          43.000  
R23  20719827.186 1 110837103.640 1     -3429.423          43.000                                                                  
E 9  24040140.902 1 126331792.709 2     -1532.928          40.000                                                                  
E24  24792165.804 1 130283710.340 1      1192.342          45.000                                                                  
E36  23377268.031 1 122848373.596 1     -1767.370          47.000                                                                  
C14  22634526.510 1 117863918.424 1       426.573          45.000    22634534.629 1  91139890.658 2       329.771          39.000  
C24  21162699.297 1 110199728.612 1       723.816          48.000                                                                  
> 2023  9 15 18 49 22.9970000  0 16                     
G10  21591751.334 1 113465417.792 1      1749.795          46.000    21591760.747 1  88414649.919 2      1363.242          39.000  
G18  20486367.698 1 107656588.305 1     -3315.665          45.000    20486375.366 1  83888281.388 1     -2583.363          42.000  
G23  19671257.518 1 103373154.144 1       117.583          44.000    19671263.338 1  80550534.339 1        91.563          42.000  
G24  21294810.352 1 111904982.668 1     -4150.878          43.000    21294820.333 1  87198728.392 2     -3234.300          41.000  
G25  21537272.872 1 113179133.371 1      1648.995          45.000    21537284.746 1  88191580.316 2      1284.863          40.000  
G32  22844273.145 1 120047465.643 2       -34.296          41.000    22844287.609 8  93543518.024 5       -26.221          31.000  
R 1  22003405.325 1 117620812.713 2       596.025          39.000    22003418.606 4               6       463.532          30.000  
R 8  20611623.613 1 110374307.839 1      -539.891          46.000    20611631.546 2  85846717.313 3      -419.574          36.000  
R10  19909943.493 2 106131201.533 2     -2899.847          38.000                                                                  
R11  19115776.778 1 102148914.294 1      1210.480          49.000    19115781.116 1  79449174.539 1       941.714          43.000  
R23  20719955.397 1 110837789.493 1     -3429.284          43.000                                                                  
E 9  24040199.238 1 126332099.284 2     -1532.668          40.000                                                                  
E24  24792120.443 1 130283471.835 1      1192.531          45.000                                                                  
E36  23377335.254 1 122848727.051 1     -1767.366          47.000                                                                  
C14  22634510.133 1 117863833.093 1       426.474          45.000    22634518.230 1  91139824.676 2       329.777          39.000  
C24  21162671.505 1 110199583.871 1       723.576          48.000                                                                  
> 2023  9 15 18 49 23.1970000  0 16                     
G10  21591684.715 1 113465067.844 1      1749.787          46.000    21591694.143 1  88414377.226 2      1363.438          39.000  
G18  20486493.858 1 107657251.448 1     -3315.667          45.000    20486501.564 1  83888798.141 1     -2583.820          42.000  
G23  19671253.043 1 103373130.647 1       117.517          44.000    19671258.919 1  80550516.023 2        91.465          42.000  
G24  21294968.367 1 111905812.877 1     -4150.960          43.000    21294978.264 1  87199375.302 2     -3234.287          41.000  
G25  21537210.062 1 113178803.543 1      1649.166          45.000    21537221.970 1  88191323.306 2      1285.242          40.000  
G32  22844274.413 1 120047472.447 2       -33.942          41.000    22844287.959 8               6       -25.208          31.000  
R 1  22003383.013 2 117620693.536 2       596.050          39.000    22003396.396 4               6       463.632          30.000  
R 8  20611643.771 1 110374415.772 1      -539.574          46.000    20611651.717 2  85846801.279 3      -419.509          36.000  
R10  19910052.312 2 106131781.581 2     -2900.232          38.000                                                                  
R11  19115731.465 1 102148672.182 1      1210.583          49.000    19115735.829 1  79448986.228 1       941.778          43.000  
R23  20720083.623 1 110838475.425 1     -3429.646          43.000                                                                  
E 9  24040257.618 1 126332405.878 2     -1532.771          40.000                                                                  
E24  24792075.019 1 130283233.377 1      1192.344          45.000                                                                  
E36  23377402.505 1 122849080.557 1     -1767.378          47.000                                                                  
C14  22634493.813 1 117863747.764 1       426.635          45.000    22634501.849 1  91139758.687 2       329.759          39.000  
C24  21162643.818 1 110199439.157 1       723.617          48.000                                                                  
> 2023  9 15 18 49 23.3970000  0 16                     
G10  21591618.093 1 113464717.928 1      1749.529          46.000    21591627.546 1  88414104.553 2      1363.477          39.000  
G18  20486620.068 1 107657914.645 1     -3316.106          45.000    20486627.784 1  83889314.905 1     -2583.961          42.000  
G23  19671248.588 1 103373107.195 1       116.934          44.000    19671254.442 1  80550497.742 2        91.307          42.000  
G24  21295126.310 1 111906643.109 1     -4151.272          43.000    21295136.263 1  87200022.239 2     -3234.571          41.000  
G25  21537147.323 1 113178473.774 1      1648.609          45.000    21537159.278 1  88191066.353 2      1284.598          40.000  
G32  22844275.724 1 120047479.283 2       -34.357          41.000    22844288.623 8               6       -27.191          31.000  
R 1  22003360.768 1 117620574.394 2       595.516          39.000    22003374.080 4               6       464.148          30.000  
R 8  20611663.915 1 110374523.751 1      -540.082          46.000    20611671.868 2  85846885.264 3      -420.002          36.000  
R10  19910161.175 2 106132361.683 3     -2900.891          38.000                                                                  
R11  19115686.227 1 102148430.122 1      1210.172          49.000    19115690.490 1  79448797.967 1       941.411          43.000  
R23  20720211.798 1 110839161.371 1     -3430.085          42.000                                                                  
E 9  24040315.972 1 126332712.507 2     -1533.222          40.000                                                                  
E24  24792029.649 1 130282994.937 1      1192.034          45.000                                                                  
E36  23377469.832 1 122849434.112 1     -1768.022          47.000                                                                  
C14  22634477.466 1 117863662.463 1       426.237          45.000    22634485.456 1  91139692.710 2       329.865          39.000  
C24  21162616.025 1 110199294.492 1       723.174          48.000                                                                  
> 2023  9 15 18 49 23.5970000  0 16                     
G10  21591551.485 1 113464367.998 1      1749.561          46.000    21591560.981 1  88413831.880 2      1363.644          39.000  
G18  20486746.303 1 107658577.828 1     -3315.981          45.000    20486754.017 1  83889831.676 2     -2583.729          42.000  
G23  19671244.120 1 103373083.726 1       117.179          44.000    19671249.954 1  80550479.457 2        91.746          42.000  
G24  21295284.267 1 111907473.334 1     -4151.246          43.000    21295294.259 1  87200669.183 2     -3234.385          41.000  
G25  21537084.548 1 113178143.965 1      1648.984          45.000    21537096.552 1  88190809.363 2      1284.852          40.000  
G32  22844276.985 1 120047486.089 2       -33.759          41.000    22844290.098 8               7       -27.045          31.000  
R 1  22003338.409 1 117620455.193 2       596.036          39.000    22003351.717 4               7       463.186          30.000  
R 8  20611684.090 1 110374631.698 1      -539.761          46.000    20611692.102 2  85846969.193 3      -419.070          36.000  
R10  19910269.972 2 106132941.789 3     -2900.421          38.000                                                                  
R11  19115640.952 1 102148188.065 1      1210.265          49.000    19115645.146 1  79448609.701 1       941.358          43.000  
R23  20720340.041 1 110839847.314 1     -3429.530          42.000                                                                  
E 9  24040374.292 1 126333019.082 2     -1533.000          40.000                                                                  
E24  24791984.227 1 130282756.478 1      1192.267          45.000                                                                  
E36  23377537.055 1 122849787.642 1     -1767.619          47.000                                                                  
C14  22634461.097 1 117863577.133 1       426.648          45.000    22634469.062 1  91139626.746 2       329.840          39.000  
C24  21162588.233 1 110199149.816 1       723.431          48.000                                                                  
> 2023  9 15 18 49 23.7970000  0 16                     
G10  21591484.892 1 113464018.050 1      1749.731          46.000    21591494.391 1  88413559.196 2      1363.793          39.000  
G18  20486872.525 1 107659241.027 1     -3316.112          45.000    20486880.191 1  83890348.459 2     -2584.180          42.000  
G23  19671239.615 1 103373060.261 1       117.365          44.000    19671245.511 1  80550461.196 2        91.216          42.000  
G24  21295442.216 1 111908303.563 2     -4151.351          43.000    21295452.192 1  87201316.112 2     -3234.999          40.000  
G25  21537021.746 1 113177814.159 1      1649.049          45.000    21537033.803 1  88190552.377 2      1284.748          40.000  
G32  22844278.281 1 120047492.918 2       -34.204          41.000    22844291.293 8               7       -26.459          31.000  
R 1  22003316.081 1 117620336.005 2       595.987          39.000    22003329.408 4               7       462.606          30.000  
R 8  20611704.219 1 110374739.636 1      -539.662          46.000    20611712.302 2  85847053.181 3      -420.155          36.000  
R10  19910378.768 2 106133521.938 2     -2901.001          38.000                                                                  
R11  19115595.708 1 102147946.033 1      1210.010          49.000    19115599.812 1  79448421.460 1       941.233          43.000  
R23  20720468.227 1 110840533.291 2     -3429.882          42.000                                                                  
E 9  24040432.633 1 126333325.663 2     -1532.715          40.000                                                                  
E24  24791938.866 1 130282518.011 1      1192.310          45.000                                                                  
E36  23377604.287 1 122850141.209 1     -1767.918          47.000                                                                  
C14  22634444.709 1 117863491.793 1       426.691          45.000    22634452.649 1  91139560.761 2       329.635          39.000  
C24  21162560.433 1 110199005.163 1       723.153          48.000                                                                  
> 2023  9 15 18 49 23.9970000  0 16                     
G10  21591418.306 1 113463668.118 1      1749.670          46.000    21591427.791 1  88413286.557 2      1363.103          39.000  
G18  20486998.774 1 107659904.242 1     -3316.257          45.000    20487006.409 1  83890865.243 1     -2583.848          42.000  
G23  19671235.126 1 103373036.839 1       116.959          44.000    19671241.060 1  80550442.928 2        91.246          42.000  
G24  21295600.233 1 111909133.800 2     -4151.187          43.000    21295610.206 1  87201963.057 2     -3234.938          40.000  
G25  21536958.987 1 113177484.374 1      1648.994          44.000    21536971.082 1  88190295.381 2      1285.062          40.000  
G32  22844279.609 1 120047499.720 2       -34.106          40.000    22844292.016 8               7       -26.465          31.000  
R 1  22003293.742 2 117620216.793 3       595.977          39.000    22003307.075 4               7       463.396          30.000  
R 8  20611724.353 1 110374847.583 1      -539.680          46.000    20611732.449 2  85847137.141 3      -420.057          36.000  
R10  19910487.578 2 106134102.109 3     -2901.269          38.000                                                                  
R11  19115550.443 1 102147704.025 1      1209.944          49.000    19115554.505 1  79448233.231 1       941.105          43.000  
R23  20720596.512 1 110841219.282 1     -3429.936          42.000                                                                  
E 9  24040491.106 1 126333632.252 2     -1532.961          40.000                                                                  
E24  24791893.459 1 130282279.566 1      1192.154          45.000                                                                  
E36  23377671.599 1 122850494.780 1     -1767.882          47.000                                                                  
C14  22634428.358 1 117863406.459 1       426.623          45.000    22634436.265 1  91139494.766 2       329.906          39.000  
C24  21162532.635 1 110198860.529 1       723.108          48.000                                                                  
> 2023  9 15 18 49 24.1970000  0 17                     
G10  21591351.661 1 113463318.200 1      1749.463          46.000    21591361.152 1  88413013.881 2      1363.066          39.000  
G18  20487125.015 1 107660567.476 1     -3316.134          45.000    20487132.678 1  83891382.055 2     -2584.082          42.000  
G23  19671230.652 1 103373013.424 1       116.855          44.000    19671236.601 1  80550424.692 2        91.075          42.000  
G24  21295758.211 1 111909964.069 2     -4151.420          43.000    21295768.198 1  87202609.998 2     -3234.782          40.000  
G25  21536896.206 1 113177154.607 1      1648.627          44.000    21536908.341 1  88190038.438 2      1284.548          40.000  
G32  22844280.958 1 120047506.545 2       -34.229          40.000    22844293.428 8               7       -26.428          31.000  
R 1  22003271.442 2 117620097.602 3       595.859          39.000    22003284.744 4               7       463.119          30.000  
R 8  20611744.557 1 110374955.543 1      -539.948          46.000    20611752.590 2  85847221.090 3      -419.706          36.000  
R10  19910596.397 2 106134682.311 3     -2901.324          38.000                                                                  
R11  19115505.120 1 102147462.068 1      1209.714          49.000    19115509.207 1  79448045.042 1       941.013          43.000  
R23  20720724.687 1 110841905.298 2     -3430.152          42.000                                                                  
E 9  24040549.446 1 126333938.853 2     -1533.209          40.000                                                                  
E11  23587013.623 9 123950592.482 3     -3699.987          40.000                                                                  
E24  24791848.129 1 130282041.119 1      1192.074          45.000                                                                  
E36  23377738.905 1 122850848.385 1     -1768.283          47.000                                                                  
C14  22634411.950 1 117863321.138 1       426.445          45.000    22634419.882 1  91139428.793 2       329.864          39.000  
C24  21162504.873 1 110198715.918 1       722.967          48.000                                                                  
> 2023  9 15 18 49 24.3970000  0 17                     
G10  21591285.081 1 113462968.286 1      1749.541          46.000    21591294.532 1  88412741.221 2      1363.387          39.000  
G18  20487251.241 1 107661230.755 1     -3316.497          45.000    20487258.876 1  83891898.875 2     -2584.103          42.000  
G23  19671226.209 1 103372990.021 1       116.998          44.000    19671232.169 1  80550406.454 1        91.062          42.000  
G24  21295916.232 1 111910794.324 2     -4151.397          43.000    21295926.205 1  87203256.946 2     -3234.658          40.000  
G25  21536833.431 1 113176824.828 1      1648.948          44.000    21536845.580 1  88189781.464 2      1284.694          40.000  
G32  22844282.295 1 120047513.364 2       -33.972          40.000    22844294.551 8               6       -26.764          31.000  
R 1  22003249.129 2 117619978.393 3       595.864          39.000    22003262.380 4               7       463.419          30.000  
R 8  20611764.664 1 110375063.483 1      -539.613          46.000    20611772.692 2  85847305.091 3      -420.278          36.000  
R10  19910705.227 2 106135262.561 2     -2901.379          37.000                                                                  
R11  19115459.906 1 102147220.123 1      1209.666          49.000    19115463.937 1  79447856.877 1       940.667          43.000  
R23  20720852.897 1 110842591.338 1     -3430.212          42.000                                                                  
E 9  24040607.814 1 126334245.439 2     -1533.062          40.000                                                                  
E11  23587154.479 9 123951332.512 3     -3700.205          40.000                                                                  
E24  24791802.759 1 130281802.687 1      1192.196          45.000                                                                  
E36  23377806.125 1 122851201.997 1     -1768.063          46.000                                                                  
C14  22634395.527 1 117863235.812 1       426.494          45.000    22634403.459 1  91139362.793 2       330.141          39.000  
C24  21162477.125 1 110198571.330 1       722.910          48.000                                                                  
> 2023  9 15 18 49 24.5970000  0 17                     
G10  21591218.474 1 113462618.392 1      1749.397          46.000    21591227.935 1  88412468.570 2      1363.339          39.000  
G18  20487377.476 1 107661894.059 1     -3316.610          45.000    20487385.084 1  83892415.734 2     -2584.191          42.000  
G23  19671221.789 1 103372966.681 1       116.581          44.000    19671227.732 1  80550388.259 2        90.973          42.000  
G24  21296074.213 1 111911624.626 1     -4151.644          43.000    21296084.241 1  87203903.938 2     -3234.940          40.000  
G25  21536770.657 1 113176495.088 1      1648.711          44.000    21536782.857 1  88189524.524 2      1284.676          40.000  
G32  22844283.583 1 120047520.217 2       -34.210          40.000    22844295.313 8               6       -26.843          31.000  
R 1  22003226.824 2 117619859.200 3       595.979          39.000    22003240.018 4               7       464.121          30.000  
R 8  20611784.820 1 110375171.456 1      -539.734          46.000    20611792.869 2  85847389.050 3      -420.126          36.000  
R10  19910814.042 2 106135842.846 2     -2901.587          38.000                                                                  
R11  19115414.644 1 102146978.240 1      1209.348          49.000    19115418.644 1  79447668.741 1       940.712          43.000  
R23  20720981.124 1 110843277.418 1     -3430.424          42.000                                                                  
E 9  24040666.122 1 126334552.027 2     -1532.895          40.000                                                                  
E11  23587294.722 9 123952072.563 3     -3700.418          40.000                                                                  
E24  24791757.381 1 130281564.272 1      1192.008          45.000                                                                  
E36  23377873.457 1 122851555.658 1     -1768.367          46.000                                                                  
C14  22634379.151 1 117863150.498 1       426.494          45.000    22634387.104 1  91139296.837 2       329.827          40.000  
C24  21162449.396 1 110198426.775 1       722.627          48.000                                                                  
> 2023  9 15 18 49 24.7970000  0 17                     
G10  21591151.894 1 113462268.495 1      1749.578          46.000    21591161.338 1  88412195.931 2      1363.306          39.000  
G18  20487503.669 1 107662557.380 2     -3316.670          45.000    20487511.362 1  83892932.612 2     -2584.485          42.000  
G23  19671217.325 1 103372943.330 1       116.624          44.000    19671223.311 1  80550370.057 2        91.046          42.000  
G24  21296232.219 1 111912454.934 1     -4151.556          43.000    21296242.259 1  87204550.928 2     -3234.999          40.000  
G25  21536707.864 1 113176165.344 1      1648.835          44.000    21536720.148 1  88189267.586 2      1284.514          40.000  
G32  22844284.915 1 120047527.054 2       -34.088          40.000    22844296.772 4               6       -26.459          31.000  
R 1  22003204.505 2 117619739.984 3       596.056          39.000    22003217.778 4               7       462.869          30.000  
R 8  20611804.992 1 110375279.432 1      -539.928          46.000    20611812.969 2  85847473.006 3      -419.940          36.000  
R10  19910922.941 2 106136423.168 2     -2901.605          38.000                                                                  
R11  19115369.430 1 102146736.383 1      1209.252          49.000    19115373.368 1  79447480.634 1       940.507          43.000  
R23  20721109.423 1 110843963.507 1     -3430.359          42.000                                                                  
E 9  24040724.554 1 126334858.630 2     -1532.958          40.000                                                                  
E11  23587434.928 9 123952812.609 3     -3700.218          40.000                                                                  
E24  24791711.946 1 130281325.862 1      1192.142          45.000                                                                  
E36  23377940.766 1 122851909.330 1     -1768.385          46.000                                                                  
C14  22634362.730 1 117863065.181 1       426.519          45.000    22634370.701 1  91139230.865 2       329.814          40.000  
C24  21162421.644 1 110198282.228 1       722.804          48.000                                                                  
> 2023  9 15 18 49 24.9970000  0 17                     
G10  21591085.300 1 113461918.609 1      1749.132          46.000    21591094.766 1  88411923.291 2      1363.029          39.000  
G18  20487629.877 1 107663220.702 2     -3316.826          45.000    20487637.579 1  83893449.492 2     -2584.700          42.000  
G23  19671212.894 1 103372920.011 1       116.249          44.000    19671218.886 1  80550351.886 1        90.739          42.000  
G24  21296390.239 1 111913285.247 1     -4152.025          43.000    21296400.274 1  87205197.924 2     -3235.159          40.000  
G25  21536645.113 1 113175835.619 1      1648.423          44.000    21536657.421 1  88189010.641 2      1284.540          40.000  
G32  22844286.251 1 120047533.897 2       -34.363          40.000    22844297.957 8               6       -27.313          30.000  
R 1  22003182.210 1 117619620.790 3       595.895          39.000    22003195.523 4               7       462.940          30.000  
R 8  20611825.139 1 110375387.391 1      -540.096          46.000    20611833.079 2  85847556.972 3      -419.880          36.000  
R10  19911031.762 2 106137003.518 3     -2901.599          38.000                                                                  
R11  19115324.238 1 102146494.552 1      1208.764          49.000    19115328.118 1  79447292.537 1       940.332          43.000  
R23  20721237.672 1 110844649.624 1     -3430.904          43.000                                                                  
E 9  24040782.929 1 126335165.219 2     -1533.183          40.000                                                                  
E11  23587577.247 8 123953552.656 2     -3700.558          40.000                                                                  
E24  24791666.609 1 130281087.460 1      1191.806          45.000                                                                  
E36  23378008.039 1 122852263.014 1     -1768.697          46.000                                                                  
C14  22634346.349 1 117862979.871 1       426.106          45.000    22634354.267 1  91139164.876 2       329.957          40.000  
C24  21162393.840 1 110198137.707 1       722.293          48.000                                                                  
> 2023  9 15 18 49 25.1970000  0 17                     
G10  21591018.731 1 113461568.730 1      1749.368          46.000    21591028.192 1  88411650.655 2      1362.933          39.000  
G18  20487756.081 1 107663884.072 2     -3316.974          45.000    20487763.866 1  83893966.400 2     -2584.709          42.000  
G23  19671208.486 1 103372896.694 1       116.540          44.000    19671214.475 1  80550333.734 1        90.733          42.000  
G24  21296548.191 1 111914115.576 2     -4151.750          43.000    21296558.280 1  87205844.947 2     -3235.143          40.000  
G25  21536582.362 1 113175505.892 1      1648.501          45.000    21536594.652 1  88188753.711 2      1284.659          40.000  
G32  22844287.528 1 120047540.755 2       -34.204          40.000    22844298.869 8               7       -27.448          30.000  
R 1  22003159.937 1 117619501.601 3       595.523          39.000    22003173.239 4               7       463.038          30.000  
R 8  20611845.249 1 110375495.360 1      -539.841          46.000    20611853.211 2  85847640.941 3      -419.533          36.000  
R10  19911140.659 2 106137583.927 3     -2902.283          38.000                                                                  
R11  19115278.943 1 102146252.739 1      1208.956          49.000    19115282.869 1  79447104.475 1       940.275          43.000  
R23  20721365.997 1 110845335.761 1     -3430.861          43.000                                                                  
E 9  24040841.328 1 126335471.810 2     -1533.005          40.000                                                                  
E11  23587716.886 8 123954292.709 2     -3700.170          40.000                                                                  
E24  24791621.147 1 130280849.061 1      1192.022          45.000                                                                  
E36  23378075.354 1 122852616.733 1     -1768.572          46.000                                                                  
C14  22634329.941 1 117862894.551 1       426.370          45.000    22634337.890 1  91139098.934 2       329.562          40.000  
C24  21162366.060 1 110197993.213 1       722.310          48.000                                                                  
> 2023  9 15 18 49 25.3970000  0 17                     
G10  21590952.156 1 113461218.891 1      1749.152          46.000    21590961.616 1  88411378.049 2      1363.180          39.000  
G18  20487882.273 1 107664547.490 1     -3317.257          45.000    20487890.159 1  83894483.347 2     -2584.818          42.000  
G23  19671204.092 1 103372873.441 1       116.204          44.000    19671210.043 1  80550315.616 1        90.601          42.000  
G24  21296706.203 1 111914945.942 1     -4151.811          43.000    21296716.316 1  87206491.978 2     -3235.193          40.000  
